stop_id,stop_name,stop_lat,stop_lon,wheelchair_boarding
4040,Zaragoza Delicias,41.6586576,-0.9112693,1
5102,San Xo횄징n,43.4945654,-8.2142733,2
5103,Santa Ic횄짯a,43.4997707,-8.1999226,2
5104,Virxe Do Mar,43.4965254,-8.2048752,2
5105,Pi횄짹eiros,43.509483,-8.1839923,2
5106,O Ponto,43.5147757,-8.1777808,2
5107,Xuvia,43.5171911,-8.161282,2
5108,O Alto Do Casti횄짹eiro,43.5031794,-8.1955484,2
5109,Ferrer횄짯as,43.5280178,-8.1504359,2
5111,Sedes,43.5426113,-8.1401903,2
5113,Pedroso De Nar횄쨀n,43.5367071,-8.1091931,2
5115,San Sadurni횄짹o,43.5460838,-8.0781099,2
5117,Lamas,43.5473064,-8.0490166,2
5119,Apalla,43.550457,-8.0186188,2
5121,Moeche,43.562132,-8.0027572,2
5123,Labacengos,43.5652707,-7.9801882,2
5125,Entrambarr횄짯as,43.5770633,-7.9542644,2
5127,Cerdido,43.5873426,-7.9343099,2
5129,A Cuqueira,43.6078292,-7.9219389,2
5131,Santa Mar횄짯a De Mera,43.6409288,-7.9161904,2
5133,Ponte Mera,43.666038,-7.9026205,2
5135,San Clodio,43.6609443,-7.873478,2
5137,Senra,43.668793,-7.8545534,2
5139,Ortigueira,43.6862217,-7.8495738,2
5141,Espasante,43.70888,-7.804897,2
5143,Loiba,43.730393,-7.750044,2
5145,O Barqueiro,43.735649,-7.70288,2
5147,O Vicedo,43.731026,-7.673215,2
5149,Mosende,43.706194,-7.635477,2
5151,Folgueiro,43.692766,-7.635048,2
5153,Covas De Viveiro,43.670275,-7.614613,2
5155,Viveiro,43.6569,-7.60033,2
5156,Viveiro Apeadero,43.661435,-7.594532,2
5157,Xuances,43.687991,-7.553904,2
5159,Xove Pobo,43.683567,-7.510921,2
5161,Xove,43.681138,-7.495251,2
5163,Lago,43.687108,-7.481942,2
5165,Bidueiros,43.696712,-7.468843,2
5167,San Cibrao,43.692319,-7.44177,2
5169,Madeiro,43.686219,-7.412863,2
5171,Burela,43.660607,-7.361183,2
5173,Cangas De Foz,43.626106,-7.333309,2
5175,Nois,43.610309,-7.312222,2
5177,Fazouro,43.600457,-7.299843,2
5179,Marz횄징n,43.57475,-7.26936,2
5181,Foz,43.560886,-7.272235,2
5183,Barreiros,43.547366,-7.225287,2
5185,Reinante,43.54987,-7.174315,2
5187,Esteiro,43.551697,-7.146099,2
5189,Os Castros,43.55157,-7.130895,2
5191,Rinlo,43.549761,-7.108645,2
5193,Ribadeo,43.53607,-7.055572,2
5197,Vegadeo Pueblo,43.479667,-7.057327,2
5199,Vilavedelle,43.490502,-7.038353,2
5203,Trema횄짹es Carre횄짹o,43.5285524,-5.6948835,2
5204,Centro De Transportes,43.5311295,-5.7067165,2
5207,Abo횄짹o Apeadero,43.555049,-5.7236039,2
5208,Xivares,43.5659387,-5.7287459,2
5209,Perlora,43.5808632,-5.7541047,2
5210,Cand횄징s-Apeadero,43.586538,-5.7679715,2
5211,Cand횄징s,43.5847107,-5.7726902,2
5213,Regueral,43.5805017,-5.797616,2
5215,Zanzaborn횄짯n,43.5689267,-5.825312,2
5216,Gud횄짯n Laminaci횄쨀n,43.5522931,-5.8653924,2
5217,Trasona,43.5517694,-5.8741747,2
5219,Llaranes,43.5543366,-5.8965567,2
5220,Cristaler횄짯a,43.5755676,-5.9292414,2
5221,Avil횄짤s-Apeadero,43.5546343,-5.9174416,2
5224,Ra횄짯ces,43.5763492,-5.9399127,2
5225,Salinas,43.5703913,-5.9566256,2
5227,Piedras Blancas,43.5565567,-5.9755523,2
5229,Vegarrozadas,43.5511613,-5.995514,2
5231,Santiago Del Monte,43.5409241,-6.027971,2
5232,El Parador,43.5351412,-6.0705907,2
5233,Soto Del Barco,43.5290556,-6.0712934,2
5235,Riberas,43.5027396,-6.0743054,2
5237,Pe횄짹aull횄징n,43.4911696,-6.0939642,2
5239,Santianes,43.503799,-6.0918391,2
5241,Los Cabos,43.5124147,-6.0974746,2
5243,Muros Del Nal횄쨀n,43.5429728,-6.1110718,2
5244,El Pito Pi횄짹era,43.5469091,-6.1433417,2
5245,Cudillero,43.5509259,-6.1519305,2
5247,Villademar,43.557065,-6.155477,2
5249,La Magdalena,43.559309,-6.184922,2
5251,San Mart횄짯n De Lui횄짹a,43.544753,-6.228702,2
5253,San Cosme,43.544069,-6.248091,2
5255,Soto De Lui횄짹a,43.559635,-6.234369,2
5257,Valdredo,43.56638,-6.263234,2
5259,Novellana,43.557795,-6.289593,2
5261,Santa Marina,43.552674,-6.305181,2
5263,Ballota,43.550716,-6.322812,2
5265,Tablizo,43.547253,-6.351225,2
5267,Cadavedo,43.542952,-6.391612,2
5269,San Crist횄쨀bal,43.547225,-6.415264,2
5271,Canero,43.541913,-6.445878,2
5273,Barcia,43.546813,-6.50828,2
5275,Luarca,43.537949,-6.536617,2
5277,Otur,43.540541,-6.593562,2
5279,Villapedre,43.546723,-6.64587,2
5281,Pi횄짹era-Villaoril,43.535685,-6.685414,2
5283,Navia,43.536802,-6.719425,2
5285,Medal,43.545692,-6.752994,2
5287,Loza,43.551254,-6.771675,2
5289,Cartavio,43.550714,-6.789622,2
5291,La Caridad,43.547074,-6.827541,2
5293,Tapia,43.535026,-6.909329,2
5295,Tol,43.527204,-6.952128,2
5297,Las Campas De Castropol,43.5202979,-6.9771022,2
5299,Castropol,43.5095861,-7.0147697,2
5300,Vallob횄짯n,43.3652306,-5.8647984,2
5301,Arga횄짹osa-Lavapi횄짤s,43.3658311,-5.870018,2
5302,Las Campas,43.3638889,-5.8833728,2
5303,Las Mazas,43.3587192,-5.8975568,2
5304,San Claudio,43.3553535,-5.9178091,2
5306,San Pedro De Nora,43.3687481,-5.9585951,2
5308,Soto Udri횄쨀n,43.3564364,-5.9650157,2
5311,Trubia,43.34857,-5.9677756,2
5313,Santa Mar횄짯a De Grado,43.3842274,-5.9827075,2
5315,Vega De Anzo,43.38933,-6.0056834,2
5316,Pe횄짹aflor De Grado,43.4029267,-6.0453921,2
5317,Grado,43.3945424,-6.0637254,2
5319,Sandiche,43.4256226,-6.0599341,2
5320,Aces,43.4399142,-6.0657983,2
5321,San Rom횄징n,43.4488839,-6.0771641,2
5323,Beifar,43.4701379,-6.0988707,2
5325,Pravia,43.4908983,-6.1105373,2
5327,San Ran횄쨀n,43.5164547,-6.0820305,2
5329,San Esteban,43.552094,-6.0872393,2
5361,Bai횄짹a,43.2744717,-5.8282902,2
5369,Mieres Vasco,43.2502968,-5.7801106,2
5371,Caudalia,43.2282154,-5.782774,2
5373,Figaredo,43.2138398,-5.7840362,2
5375,Ujo Taruelo,43.2006229,-5.7878612,2
5376,Santa Cruz,43.1959703,-5.7775447,2
5377,Caborana,43.1761169,-5.7548626,2
5379,Moreda De Aller,43.1707918,-5.7419622,2
5380,San Antonio,43.168851,-5.6967075,2
5381,Oyanco,43.1665527,-5.7221512,2
5382,Corigos,43.1642867,-5.6766513,2
5383,Pi횄짹eres,43.165973,-5.6842539,2
5384,Santa Ana-Soto,43.1647805,-5.6460998,2
5385,Caba횄짹aquinta,43.16077,-5.6248987,2
5387,Levinco,43.1511077,-5.6002937,2
5389,Collanzo,43.1241004,-5.5661544,2
5403,Trema횄짹es-Langreo,43.5285439,-5.6948684,2
5405,Sotiello,43.5072386,-5.7265416,2
5407,Pinzales,43.4865408,-5.7197038,2
5409,Aguda,43.4655199,-5.7260209,2
5410,Xix횄쨘n,43.3714523,-5.6938682,2
5411,La Florida,43.4347588,-5.7099268,2
5412,Puente Buracos,43.4480478,-5.7172664,2
5413,Nore횄짹a,43.3939778,-5.7036269,2
5415,Bendici횄쨀n,43.3634748,-5.680585,2
5416,Valdesoto,43.3583496,-5.6581467,2
5417,Carbay횄짯n,43.3507215,-5.6343348,2
5420,Curuxona,43.3398152,-5.6304762,2
5421,Tuilla,43.3281506,-5.6430775,2
5426,La Felguera N. Langreo-N. Llangr횄짤u,43.305459,-5.688896,2
5427,Sama Los Llerones,43.296706,-5.680359,2
5431,Cia횄짹o Escobio,43.2907242,-5.6678998,2
5432,San Vicente,43.2891417,-5.6529333,2
5433,El Entrego La Oscura,43.2895101,-5.6408099,2
5435,Carrocera,43.2877335,-5.6263765,2
5436,San Mart횄짯n,43.2783764,-5.6152919,2
5437,Sotrondio,43.2759255,-5.60489,2
5439,Blimea,43.2708812,-5.5903311,2
5441,Barredos,43.2598889,-5.5749934,2
5443,Laviana,43.2508161,-5.5646688,2
5451,Bilbao La Concordia,43.2601901,-2.9263839,2
5455,Basurto Hospital,43.2597699,-2.9538267,2
5457,Zorrotza Zorrozgoiti,43.2740398,-2.9740116,2
5459,Santa 횄징gueda,43.261857,-2.9730218,2
5460,Kastrexana,43.2554758,-2.9721445,2
5461,Irauregui,43.248418,-2.9900734,2
5463,Zaramillo,43.2332894,-3.015904,2
5465,La Quadra,43.222723,-3.0249848,2
5467,Sodupe,43.2020301,-3.050517,2
5469,Artxube,43.200993,-3.0715031,2
5470,Lambarri,43.2060733,-3.0825107,2
5471,G횄쩌e횄짹es,43.2090276,-3.0952113,2
5473,Aranguren,43.2104561,-3.108399,2
5474,Aranguren-Apeadero,43.2103517,-3.1140505,2
5475,Zalla,43.2129096,-3.1333368,2
5477,Colegio,43.2112674,-3.1381409,2
5479,Ibarra,43.203959,-3.1448388,2
5481,La Herrera,43.2034521,-3.1705687,2
5483,Balmaseda,43.1963551,-3.1899562,2
5484,Mimetiz,43.2132627,-3.1352774,1
5485,La Calzada,43.1901154,-3.1974062,2
5487,Traslavi횄짹a,43.23329,-3.198304,2
5489,Artzentales,43.25,-3.22,2
5493,Villaverde De Trucios,43.24128,-3.25054,2
5497,Karrantza,43.238854,-3.357827,2
5504,Parque Principado,43.3865865,-5.8087971,2
5505,Colloto,43.3795086,-5.792366,2
5507,Meres,43.3809885,-5.7487209,2
5508,Fonciello,43.3817779,-5.7297194,2
5509,El Berr횄쨀n,43.3827383,-5.7026774,2
5511,La Carrera De Siero,43.3869214,-5.6753462,2
5513,Pola De Siero,43.3881527,-5.6647718,2
5515,Los Corros,43.3768432,-5.6013769,2
5517,Lieres,43.380583,-5.5826229,2
5521,El Remedio,43.3750793,-5.5462394,2
5522,Llames,43.3687796,-5.5252404,2
5523,Nava,43.3611878,-5.5090986,2
5525,Fuente Santa De Nava,43.3555699,-5.478379,2
5527,Ceceda,43.3562226,-5.4511094,2
5529,Carancos,43.3555692,-5.4344422,2
5531,Pintueles,43.3599234,-5.3841316,2
5533,Infiesto,43.3517868,-5.3692019,2
5534,Infiesto Apeadero,43.3440407,-5.3606414,2
5535,Villamayor,43.3631,-5.30285,2
5537,Sebares,43.36236,-5.2574,2
5539,Soto De Due횄짹as,43.3583,-5.22689,2
5541,Ozanes,43.368395,-5.185191,2
5542,Policl횄짯nico,43.378622,-5.18603,2
5543,Arriondas,43.387513,-5.188258,2
5545,Fuentes,43.401443,-5.143117,2
5547,Tora횄짹o,43.412281,-5.118013,2
5549,Cuevas,43.431144,-5.073302,2
5551,Llovio,43.440563,-5.055592,2
5553,Ribadesella,43.45945,-5.0545,2
5555,Camango,43.44821,-5.01882,2
5557,Belmonte De Pr횄짯a,43.4398,-4.98228,2
5559,Nueva,43.440585,-4.935531,2
5561,Villahormes,43.4420099,-4.90383,2
5563,Posada,43.42483,-4.865,2
5565,Balmori,43.42147,-4.83583,2
5567,Celorio,43.42501,-4.81133,2
5569,Poo,43.42429,-4.78189,2
5571,Llanes,43.42094,-4.7587,2
5573,San Roque Del Acebal,43.39473,-4.73013,2
5575,Vidiago,43.39647,-4.673,2
5577,Pendueles,43.39283,-4.63039,2
5579,Colombres,43.38272,-4.55709,2
5602,Valdecilla La Marga,43.4529465,-3.8282409,2
5603,Cazo횄짹a,43.4551542,-3.8411637,2
5604,Adarzo,43.4534716,-3.8559044,2
5605,Bezana,43.4408549,-3.8995921,2
5607,Mortera,43.4352343,-3.9182532,2
5609,Boo De Pi횄짤lagos,43.4316558,-3.9463107,2
5611,Mogro,43.4248932,-3.9605163,2
5613,Gornazo,43.4097025,-3.9886035,2
5615,Mar,43.3984063,-4.0100059,2
5617,Requejada,43.3914179,-4.0280246,2
5619,Barreda,43.3742833,-4.0418972,2
5620,Altamira,43.3519196,-4.0569699,2
5621,Torrelavega-Centro,43.3510014,-4.0511789,2
5622,Ganzo,43.3565281,-4.0702273,2
5623,Puente San Miguel,43.3586724,-4.0877667,2
5625,Santa Isabel De Quijas,43.3590101,-4.1118533,2
5627,San Pedro De Rudag횄쩌era,43.3611587,-4.1495281,2
5629,Golbardo,43.3408164,-4.1556282,2
5631,Casar De Periedo,43.3387837,-4.174731,2
5633,Virgen De La Pe횄짹a,43.3230394,-4.193484,2
5635,Ontoria,43.3153337,-4.2154219,2
5637,Cabez횄쨀n De La Sal,43.3079038,-4.2319437,2
5641,Trece횄짹o,43.31828,-4.30902,2
5643,Roiz,43.32821,-4.34927,2
5644,El Barcenal,43.340347,-4.383335,2
5645,San Vicente De La Barquera,43.367837,-4.404504,2
5647,Pesu횄짤s,43.370289,-4.480174,2
5649,Unquera,43.37478,-4.51434,2
5651,Nueva Monta횄짹a,43.4401845,-3.8493711,2
5652,Valle Real,43.4275399,-3.8405377,2
5655,Malia횄짹o Vidriera,43.4160163,-3.8411016,2
5657,Astillero,43.4036508,-3.8206798,2
5658,La Cant횄징brica,43.3973661,-3.8149679,2
5659,San Salvador,43.393766,-3.803854,2
5661,Heras,43.4008996,-3.7666376,2
5663,Orejo,43.3994776,-3.7383974,2
5665,Solares,43.387247,-3.7313834,2
5667,Cece횄짹as,43.3764924,-3.7181918,2
5669,La Cavada,43.3506141,-3.7070777,2
5671,Li횄짤rganes,43.3450748,-3.742645,2
5672,Puente Ag횄쩌ero,43.406489,-3.719342,2
5673,Villaverde De Pontones,43.411322,-3.703643,2
5675,Hoz De Anero,43.404885,-3.666883,2
5677,Beranga,43.41371,-3.57713,2
5679,Gama,43.42315,-3.52472,2
5681,Cicero,43.417052,-3.49049,2
5683,Treto,43.39409,-3.4692,2
5685,Limpias,43.35881,-3.43334,2
5687,Marr횄쨀n,43.34661,-3.420918,2
5689,Udalla,43.31368,-3.44549,2
5691,Gibaja,43.28219,-3.43831,2
5721,Arla Berr횄쨀n,43.166699,-3.227589,2
5722,Ungo Nava,43.142894,-3.264716,2
5724,Mercadillo Villasana,43.105209,-3.264469,2
5727,Cadagua,43.068171,-3.347339,2
5730,Bercedo-Montija,43.088479,-3.456,2
5731,Quintana De Los Prados,43.08,-3.51,2
5732,Espinosa De Los Monteros,43.074252,-3.537116,2
5733,Redondo,43.062993,-3.607895,2
5734,Sotoscueva,43.045292,-3.688253,2
5735,Pedrosa,43.012367,-3.737852,2
5736,Dosante Cidad,43.00125,-3.74525,2
5737,Robredo Ahedo,43.019094,-3.809231,2
5738,Soncillo,43.005809,-3.844888,2
5739,Caba횄짹as De Virtus,42.996397,-3.858466,2
5740,Arija,42.991292,-3.945006,2
5741,Llano,42.988062,-3.982357,2
5742,Las Rozas De Valdearroyo,42.973605,-4.029864,2
5743,Montes Claros,42.934323,-4.050073,2
5744,Los Carabeos,42.910329,-4.075211,2
5747,Cillamayor,42.857752,-4.279178,2
5748,Salinas De Pisuerga,42.851271,-4.386209,2
5749,Vado-Cervera,42.83936,-4.49477,2
5750,Castrej횄쨀n De La Pe횄짹a,42.81199,-4.60162,2
5751,Villaverde Tarilonte,42.818353,-4.685419,2
5752,Santib횄징횄짹ez De La Pe횄짹a,42.80204,-4.74145,2
5753,Guardo Apeadero,42.7877378,-4.845133,2
5754,Guardo,42.790995,-4.8519325,2
5755,La Llama De La Guzpe횄짹a,42.7702481,-5.0412478,2
5756,La Espina,42.786856,-4.9052025,2
5757,Valcuende,42.765578,-4.9292558,2
5758,Puente Almuhey,42.787632,-4.9718992,2
5759,Prado De La Guzpe횄짹a,42.7832347,-5.0270973,2
5760,Valle De Las Casas,42.767772,-5.0713669,2
5761,Cistierna,42.80316,-5.1307925,2
5762,Yugueros,42.8097904,-5.180063,2
5763,La Ercina,42.808848,-5.2138924,2
5764,Barrillos,42.8123682,-5.2831145,2
5765,La Losilla,42.8385443,-5.3181608,2
5766,Bo횄짹ar,42.8627875,-5.3285261,2
5767,La Vecilla,42.8551158,-5.4121157,2
5768,Aviados,42.8547767,-5.4428396,2
5769,La Valcueva,42.8496651,-5.4869085,2
5770,Matallana,42.841149,-5.5218718,2
5771,Pardav횄짤,42.8063499,-5.5081891,2
5772,Pedr횄쨘n,42.7908982,-5.5069482,2
5773,Manzaneda,42.7542903,-5.5165558,2
5774,Garrafe,42.7345075,-5.524156,2
5775,Palazuelo,42.7071257,-5.5337809,2
5776,San Feliz,42.6823112,-5.5379086,2
5777,Villaquilambre,42.6468662,-5.5540376,2
5778,Feve-Le횄쨀n,42.6024918,-5.5749341,2
5784,Estaci횄쨀n de tren Hospitales,42.6126201,-5.5698556,2
5785,Villasinta,42.6575819,-5.5492813,2
5786,Matueca,42.7715398,-5.5119483,2
5787,Naredo,42.8336507,-5.5231779,2
5788,Robles,42.8407366,-5.5073155,2
5789,Campohermoso,42.8559355,-5.4287449,2
5790,Sorriba,42.786277,-5.1274758,2
5793,La Mata De La Riba,42.8585407,-5.3394898,2
5794,La Raya,42.6381109,-5.5569812,2
5795,Otero,42.8595705,-5.3899673,2
5796,Villa Romana,42.6292043,-5.5613065,2
5797,Valdepi횄짤lago,42.8649635,-5.4032191,2
5798,La Devesa,42.8201272,-5.3021918,2
5799,Cerezal De La Guzpe횄짹a,42.7797744,-5.0055719,2
5801,Ventas/S.mam횄짤s,42.609876,-5.5711761,2
5803,La Asunci횄쨀n Universidad,42.6160983,-5.5660988,2
5805,Barrio De Las Ollas,42.8646447,-5.3344811,2
5807,Valderilla,42.7187742,-5.5300014,2
5951,Cartagena-Plaza Bastarreche,37.6036154,-0.9773265,2
5952,Estaci횄쨀n de tren Hospital,37.6052193,-0.9607323,2
5953,Media Legua,37.6078831,-0.9536521,2
5955,Vista Alegre,37.6093129,-0.9437592,2
5957,Abrevadero,37.6097023,-0.9318284,2
5959,Alumbres,37.6099324,-0.9148413,2
5961,La Esperanza,37.6137635,-0.8914408,2
5963,La Uni횄쨀n Vieja,37.6154668,-0.8816322,2
5965,La Uni횄쨀n,37.6155485,-0.875132,2
5967,Sierra Minera,37.6198783,-0.8648822,2
5969,Llano Del Beal,37.6260468,-0.8362123,2
5971,El Estrecho,37.6276079,-0.829592,2
5973,Nietos Viejos,37.6469125,-0.7915137,2
5975,Los Nietos Pescader횄짯a,37.6493515,-0.7878563,2
5977,Los Nietos,37.6518304,-0.7970802,2
6002,Alhama De Murcia,37.8494024,-1.4145141,2
6003,Totana,37.7635424,-1.4956153,2
6005,Lorca-San Diego,37.6807168,-1.6856452,2
6006,Lorca-Sutullena,37.6721129,-1.6962305,2
6007,Puerto Lumbreras,37.5810062,-1.7318752,2
6100,Almendricos,37.4748802,-1.7796299,2
7001,Pulp횄짯,37.3992033,-1.7494862,2
7003,Jarav횄짯a,37.3924632,-1.69304,2
7004,횄징guilas,37.409865,-1.5725342,2
7007,횄징guilas-El Labradorcico,37.4119664,-1.5858719,2
10000,Madrid-Pr횄짯ncipe P횄짯o,40.4214895,-3.7189689,1
10001,Aravaca,40.4484551,-3.7855547,2
10002,Pozuelo,40.4474569,-3.8002779,2
10005,Las Rozas,40.4942887,-3.8681747,2
10007,Majadahonda,40.4742885,-3.8462931,2
10010,El Barrial-Centro Comercial Pozuelo,40.4653918,-3.8076854,2
10100,Pinar De Las Rozas,40.5222672,-3.8822477,2
10101,Las Matas,40.5523869,-3.8967664,2
10103,Torrelodones,40.574554,-3.9566013,2
10104,Galapagar-La Navata,40.6003138,-3.982259,2
10200,Villalba De Guadarrama,40.6264893,-4.0080301,1
10201,San Yago,40.6178953,-4.0310749,2
10202,Las Zorreras-Navalquejigo,40.6093116,-4.0463626,2
10203,El Escorial,40.5853675,-4.1324053,2
10204,Zarzalejo,40.5389272,-4.1580662,2
10205,Robledo De Chavela,40.5208244,-4.2467592,2
10206,Santa Mar횄짯a De La Alameda-Peguerinos,40.569001,-4.2691255,2
10207,Las Navas Del Marqu횄짤s,40.589205,-4.362259,2
10208,Navalperal,40.591152,-4.408382,2
10209,El Pimpollar,40.567587,-4.283541,2
10300,Herrad횄쨀n-La Ca횄짹ada,40.599275,-4.495039,2
10302,Guimorcondo,40.649062,-4.614987,2
10400,횄징vila,40.657255,-4.683312,1
10409,Ar횄짤valo,41.047123,-4.701988,2
10500,Medina Del Campo,41.317617,-4.909923,1
10600,Valladolid-Campo Grande,41.642167,-4.726986,1
10602,Cabez횄쨀n Del Pisuerga,41.737276,-4.651294,2
10605,Due횄짹as,41.87048,-4.541216,2
11000,Venta De Ba횄짹os,41.91736,-4.495844,2
11004,Magaz,41.976561,-4.432114,2
11006,Quintana Del Puente,42.079974,-4.19858,2
11009,Villaquir횄징n,42.215717,-3.999396,2
11014,Burgos-Rosa Manzano,42.371197,-3.666308,1
11109,Briviesca,42.542765,-3.319287,2
11305,Brinkola,43.0189865,-2.3346811,2
11306,Legazpi,43.0510385,-2.3306103,2
11400,Zumarraga,43.0870824,-2.3202298,2
11402,Orm횄징iztegui,43.0402752,-2.256462,2
11404,Beasain,43.0462687,-2.2022994,2
11405,Ordizia,43.0527547,-2.1791923,2
11406,Itsasondo,43.0683298,-2.162485,2
11407,Legorreta,43.0856948,-2.1408977,2
11408,Ikaztegieta,43.0940398,-2.1255773,2
11409,Alegia,43.1017599,-2.09714,2
11500,Tolosa,43.1354472,-2.0790886,2
11501,Tolosa-Centro,43.1393963,-2.0741122,2
11502,Anoeta,43.1626064,-2.0703897,2
11503,Billabona-Zizurkil,43.1891906,-2.0553722,2
11504,Andoain-Centro,43.2155738,-2.0204595,2
11505,Andoain,43.2220458,-2.0156757,2
11506,Urnieta,43.2474669,-1.9884271,2
11507,Hernani-Erdia,43.2664779,-1.9726232,2
11508,Hernani,43.2725113,-1.9637735,2
11509,Martutene,43.2991128,-1.9561747,2
11510,Loiola,43.3046746,-1.9636294,2
11511,San Sebasti횄징n-Donostia,43.3176961,-1.9767172,1
11512,Gros,43.3218457,-1.9738835,2
11513,Ategorrieta,43.3203225,-1.9598127,2
11514,Herrera,43.3193537,-1.9370173,2
11515,Pasaia,43.3189428,-1.9171727,2
11516,Lezo-Renter횄짯a,43.3159364,-1.8994386,2
11518,Ventas De Ir횄쨘n,43.3304116,-1.8167813,2
11522,Intxaurrondo,43.3200487,-1.9517673,2
11600,Irun,43.3395365,-1.8012519,1
12001,Los Negrales,40.638567,-4.0218746,2
12002,Alpedrete,40.6581044,-4.0349719,2
12004,Collado Mediano,40.6928982,-4.0359271,2
12005,Los Molinos-Guadarrama,40.7066407,-4.0671991,2
12006,Cercedilla,40.7376129,-4.0662985,2
12007,Tablada,40.705648,-4.12531,2
12008,Gudillos,40.716914,-4.157681,2
12009,San Rafael,40.714944,-4.18143,2
12010,El Espinar,40.740852,-4.189482,2
12011,Los 횄징ngeles De San Rafael,40.777909,-4.206933,2
12012,Otero-Herreros,40.80097,-4.203504,2
12013,Ortigosa Del Monte,40.832771,-4.168094,2
12014,Navas De Riofr횄짯o-La Losa,40.856673,-4.141103,2
12020,Puerto De Navacerrada,40.7844678,-4.0047744,2
12023,Los Cotos,40.8223419,-3.9644961,2
12100,Segovia,40.93403,-4.11365,2
13100,Ordu횄짹a,42.9946191,-3.0158139,2
13101,Amurrio,43.049051,-3.0020176,2
13102,Salbio,43.074172,-2.9993953,2
13103,Luiaondo,43.0935926,-2.9996644,2
13104,Santa Cruz De Llodio,43.132863,-2.9698375,2
13106,Llodio,43.1423514,-2.9606511,2
13107,Areta,43.1451273,-2.9433913,2
13108,Arbide,43.1632587,-2.9278362,2
13109,Arrankudiaga,43.1694994,-2.9184485,2
13110,Ugao-Miraballes,43.1790833,-2.902696,2
13111,Arrigorriaga,43.2100868,-2.8885723,2
13112,Basauri,43.2235298,-2.8823858,2
13113,Bidebieta-Basauri,43.237057,-2.8894856,2
13114,Ollargan,43.2424974,-2.9164564,2
13115,Bakiola,43.1769858,-2.90907,2
13116,I횄짹arratxu,43.0358243,-3.0038794,2
13117,Arakaldo,43.1535592,-2.9382027,2
13118,Abaroa-San Miguel,43.225648,-2.8871139,2
13119,La Pe횄짹a De Bilbao,43.2401669,-2.9240429,2
13120,Miribilla,43.250429,-2.9305155,2
13121,Amurrio Iparralde,43.0578453,-2.9960659,2
13200,Bilbao-Intermod. Abando Indalecio Prieto,43.2601304,-2.9285592,1
13205,Zabalburu,43.2567911,-2.9322841,2
13206,Ametzola,43.2547065,-2.9436598,2
13207,Autonom횄짯a,43.2581339,-2.9460321,2
13208,San Mam횄짤s,43.2615306,-2.9488341,2
13303,Olabeaga,43.2643804,-2.9553272,2
13304,Zorrotza,43.2778039,-2.9721188,2
13305,Lutxana-Barakaldo,43.2878137,-2.9754132,2
13400,Desertu-Barakaldo,43.3000264,-2.984409,2
13401,Sestao,43.3085201,-2.9940107,2
13402,La Iberia,43.3127031,-3.0044959,2
13403,Portugalete,43.318676,-3.0152296,2
13404,Pe횄짹ota,43.3263563,-3.0234574,2
13405,Santurtzi,43.3286605,-3.0295685,2
13501,Galindo,43.3041349,-3.0101966,2
13502,Tr횄징paga,43.3030265,-3.0169907,2
13503,Valle De Tr횄징paga/Trapagaran,43.3014842,-3.0287951,2
13504,Ortuella,43.3115122,-3.0603549,2
13505,Putxeta,43.3156801,-3.0911356,2
13506,Muskiz,43.3215111,-3.1123207,2
13507,Urioste,43.3075315,-3.041072,2
13508,Gallarta,43.3193319,-3.0674521,2
13509,Sagrada Familia,43.3082365,-3.0528979,2
14100,Palencia,42.015711,-4.534135,1
14200,Mataporquera,42.870901,-4.165406,2
14202,Reinosa,42.9944991,-4.1409454,2
14203,Lantueno-Santiurde,43.0580731,-4.0840131,2
14204,Pesquera,43.082333,-4.0738143,2
14206,B횄징rcena,43.1287054,-4.053473,2
14207,Molledo-Portol횄짯n,43.1456269,-4.0390334,2
14208,Santa Cruz De Igu횄짹a,43.1701216,-4.0450627,2
14209,Las Fraguas,43.193219,-4.0541127,2
14210,Los Corrales De Buelna,43.2551009,-4.0639472,2
14211,Las Caldas De Besaya,43.2985945,-4.073252,2
14212,Vi횄짤rnoles,43.3245636,-4.0540441,2
14213,Torrelavega,43.3276776,-4.0426871,2
14214,Sierrapando,43.3417845,-4.0266342,2
14215,Zurita,43.3476712,-3.9910501,2
14216,Renedo,43.3531069,-3.9496471,2
14217,Parbay횄쨀n,43.3767446,-3.8942201,2
14218,Guarnizo,43.3915101,-3.859545,2
14219,Boo,43.4104796,-3.8415883,2
14220,Malia횄짹o,43.4161415,-3.8410762,2
14223,Santander,43.4583981,-3.8109529,1
14230,Valdecilla,43.4540888,-3.8277628,2
14231,Nueva Monta횄짹a,43.4401137,-3.8493866,2
14232,Lombera,43.2658249,-4.0675902,2
14233,R횄짯o Ebro,43.0007554,-4.1344006,2
14234,Pujayo,43.1228745,-4.0823753,2
14235,Arenas De Igu횄짹a,43.1850828,-4.0500754,2
14236,Vio횄짹o,43.360647,-3.9648063,2
14237,Muriedas-Bah횄짯a,43.4216858,-3.8441175,2
15004,Paredes De Nava,42.150694,-4.697599,2
15007,Villada,42.245238,-4.970589,2
15008,Grajal,42.323246,-5.013381,2
15009,Sahag횄쨘n,42.369329,-5.022667,1
15012,El Burgo Ranero,42.425753,-5.208592,2
15015,Palanquinos,42.460716,-5.497584,2
15100,Le횄쨀n,42.596048,-5.582428,1
15106,La Robla,42.804454,-5.626255,2
15108,La Pola De Gord횄쨀n,42.854099,-5.674524,2
15109,Santa Luc횄짯a,42.87515,-5.639613,2
15112,Villaman횄짯n,42.93671,-5.657637,2
15113,Busdongo,42.984495,-5.705391,2
15116,Linares-Congostinas,43.101743,-5.772162,2
15118,Puente De Los Fierros,43.0715986,-5.769465,2
15119,La Frecha,43.096167,-5.7985997,2
15120,Campomanes,43.1100681,-5.8164466,2
15121,La Cobertoria,43.1301608,-5.8160304,2
15122,Pola De Lena,43.15872,-5.8310263,2
15123,Villallana,43.1838568,-5.8145928,2
15200,Ujo,43.2046962,-5.7926422,1
15202,Santullano,43.220899,-5.7855868,2
15203,Mieres-Puente,43.2500266,-5.7822622,1
15205,Abla횄짹a,43.2676032,-5.8057926,2
15206,La Pereda-Riosa,43.2770867,-5.812235,2
15207,Olloniego,43.2961226,-5.8188502,2
15208,Soto De Rey,43.3064094,-5.8558072,2
15209,Las Segadas,43.3132419,-5.8691978,2
15210,El Caleyo,43.3290466,-5.8733323,2
15211,Oviedo,43.3663577,-5.854838,1
15212,Lugones,43.404272,-5.8117818,1
15217,La Corredoria,43.388108,-5.8272527,1
15218,Llamaquique,43.3588282,-5.8573201,1
15300,Lugo De Llanera,43.4423322,-5.8158932,1
15301,Villabona De Asturias,43.4615187,-5.8263463,2
15302,Ser횄짯n,43.504905,-5.7818821,2
15303,Monteana,43.5208475,-5.746358,2
15305,Villabona-Tabladiello,43.4741624,-5.8000538,2
15400,Veri횄짹a,43.5415755,-5.722797,2
15401,Calzada De Asturias,43.5353848,-5.6971507,2
15410,Gij횄쨀n-Sanz Crespo,43.5377329,-5.6758089,1
16001,Santa Eulalia De Manzaneda,43.3173375,-5.8126204,1
16002,Tudela-Vegu횄짯n,43.3310103,-5.7768925,2
16005,Pe횄짹a Rubia,43.321302,-5.7208059,2
16006,Barros,43.3178302,-5.7109141,1
16008,La Felguera,43.304831,-5.6928516,2
16009,Sama,43.2987784,-5.6833209,2
16010,Cia횄짹o,43.2893884,-5.6686704,2
16011,El Entrego,43.2895167,-5.6408474,1
16301,Ferro횄짹es,43.4760338,-5.8616217,2
16302,Cancienes,43.507333,-5.8692521,2
16400,Nubledo,43.5234229,-5.8703014,2
16401,Villalegre,43.5400404,-5.9022308,2
16402,La Rocica,43.5471015,-5.9047083,2
16403,Avil횄짤s,43.561339,-5.9228329,2
16405,San Juan De Nieva,43.5895359,-5.9325513,1
16408,Los Campos,43.5365119,-5.8848823,2
17000,Madrid-Chamart횄짯n-Clara Campoamor,40.4711789,-3.6829524,1
17001,Fuencarral,40.5015603,-3.6825042,2
17003,El Goloso,40.5588966,-3.7139714,2
17004,Tres Cantos,40.5987417,-3.7155585,2
17005,Colmenar Viejo,40.6452094,-3.7766142,2
17009,Universidad-Cantoblanco,40.5438416,-3.7001551,1
18000,Madrid-Atocha Cercan횄짯as,40.4066191,-3.6894391,1
18001,Madrid-Recoletos,40.4233731,-3.690931,2
18002,Madrid-Nuevos Ministerios,40.4466271,-3.6923468,1
18003,M횄짤ndez 횄징lvaro P.v.,40.3957768,-3.677844,2
18004,Delicias,40.4004375,-3.6927766,2
18005,Pir횄징mides,40.4025341,-3.7113623,2
18101,Sol,40.4168665,-3.7028765,2
19001,Universidad Pontificia De Comillas,40.5539697,-3.6836997,1
19002,Valdelasfuentes,40.5474339,-3.6543237,1
19003,Alcobendas-San Sebasti횄징n De Los Reyes,40.5465765,-3.6351731,1
21010,Ferrol,43.4880467,-8.2310664,1
30000,Monfrag횄쩌e,39.937464,-6.10091,2
30002,Plasencia,40.022282,-6.099397,2
35001,Legan횄짤s,40.328643,-3.7713161,2
35002,Fuenlabrada,40.2833784,-3.7994429,2
35005,Illescas,40.12088,-3.842262,2
35009,Zarzaquemada,40.3408526,-3.7482632,2
35010,La Serna-Fuenlabrada,40.2968173,-3.7926235,2
35011,Parque Polvoranca,40.3125738,-3.7834937,2
35012,Humanes,40.2558101,-3.8287055,2
35105,Torrijos,39.979003,-4.283037,2
35109,Montearag횄쨀n,39.960996,-4.647093,2
35200,Talavera De La Reina,39.970674,-4.826512,2
35203,Oropesa De Toledo,39.921746,-5.186137,2
35206,Navalmoral De La Mata,39.894913,-5.545607,2
35400,C횄징ceres,39.461131,-6.385679,1
35600,Aluche,40.3856677,-3.7607343,2
35601,Maestra Justa Freire-Polidep. Aluche,40.3836379,-3.7686869,2
35602,Las 횄징guilas,40.381022,-3.7801636,2
35603,Cuatro Vientos,40.3777651,-3.79151,2
35604,San Jos횄짤 De Valderas,40.356613,-3.815573,2
35605,Alcorc횄쨀n,40.3502269,-3.8317018,2
35606,M횄쨀stoles,40.3286626,-3.8636221,2
35607,M횄쨀stoles-El Soto,40.331064,-3.882456,2
35608,Laguna,40.3990603,-3.7442305,2
35609,Embajadores,40.4046484,-3.702579,2
35610,Las Retamas,40.3421153,-3.8424636,2
35702,Doce De Octubre,40.378921,-3.6986988,2
35703,Orcasitas,40.3671021,-3.7042307,2
35704,Puente Alcocer,40.3504482,-3.7051154,2
37001,Madrid-Villaverde Alto,40.3415895,-3.7123508,2
37002,Getafe-Centro,40.3100045,-3.7339878,1
37010,Las Margaritas,40.3230989,-3.7272863,1
37011,Getafe-Sector 3,40.2883893,-3.7374991,1
37012,Parla,40.2410986,-3.7692699,1
37500,M횄짤rida,38.921503,-6.343794,1
40002,Calamonte,38.886931,-6.382965,2
40004,Almendralejo,38.684662,-6.399815,2
40005,Villafranca De Los Barros,38.564402,-6.352048,2
40006,Los Santos De Maimona,38.449724,-6.361749,2
40008,Zafra Feria,38.424403,-6.410084,2
40100,Zafra,38.413635,-6.405083,2
40105,Llerena,38.237,-6.009017,2
40107,Fuente Del Arco,38.16353,-5.900484,2
40108,Guadalcanal,38.090197,-5.803388,2
40113,Cazalla-Constantina,37.9328637,-5.704433,2
40115,Pedroso,37.8373919,-5.7624522,2
40119,Villanueva Del R횄짯o-Minas,37.6617048,-5.7121543,2
40121,Alcolea Del R횄짯o,37.6354557,-5.7308309,2
40122,Tocina,37.6093044,-5.7316939,2
43000,San Jer횄쨀nimo,37.433173,-5.98036,2
43002,Camas,37.4177385,-6.0408469,2
43003,Villanueva Del Ariscal Y Olivares,37.4071375,-6.1481895,2
43004,Sanl횄쨘car La Mayor,37.3814397,-6.1939625,2
43005,Benacaz횄쨀n,37.3568512,-6.2082011,2
43026,Valencina-Santiponce,37.4268127,-6.0566858,2
43027,Salteras,37.4102348,-6.0992391,2
50600,Lora Del R횄짯o,37.6613212,-5.5295514,2
50602,Guadajoz,37.5814594,-5.6699795,2
50700,Los Rosales,37.5899718,-5.7261208,1
50701,Cantillana,37.5749689,-5.8032073,2
50702,Brenes,37.5463276,-5.8667821,2
50703,La Rinconada,37.4800897,-5.940119,2
50704,El C횄징횄짹amo,37.4863952,-5.932975,2
51003,Sevilla-Santa Justa,37.3924955,-5.9749269,1
51009,Palacio De Congresos,37.4036456,-5.9362636,1
51010,Padre P횄짯o-Palmete,37.370852,-5.9394111,1
51050,Cartuja,37.4074574,-6.0101856,2
51051,Estadio Ol횄짯mpico,37.4174307,-6.007496,2
51100,San Bernardo,37.3777778,-5.9796142,1
51101,La Salud,37.3299833,-5.9637916,2
51103,Dos Hermanas,37.2872259,-5.9235322,2
51110,Virgen Del Roc횄짯o,37.3628091,-5.9760105,1
51111,Bellavista,37.3215188,-5.9641924,2
51112,Cantaelgallo,37.2782197,-5.9104397,1
51113,Jardines De H횄짤rcules,37.3328527,-5.964094,2
51200,Utrera,37.1848178,-5.7907537,1
51202,Las Cabezas De San Juan,37.0194897,-5.94658,2
51203,Lebrija,36.9116378,-6.0948487,1
51205,Aeropuerto De Jerez,36.7515886,-6.0659384,2
51300,Jerez De La Frontera,36.680022,-6.1266032,1
51400,Puerto De Santa Mar횄짯a,36.6040723,-6.2179261,1
51401,Puerto Real,36.5309155,-6.1853143,1
51402,San Fernando-Centro,36.4759612,-6.1940322,1
51404,Segunda Aguada,36.5135317,-6.2770128,1
51405,C횄징diz,36.528935,-6.2879716,1
51406,San Fernando-Bah횄짯a Sur,36.4680834,-6.2067676,1
51407,Cortadura,36.4943672,-6.2682384,2
51409,C횄징diz-Estadio,36.5029461,-6.2720644,1
51414,San Severiano,36.5216048,-6.2806706,1
51415,Las Aletas,36.544638,-6.1990088,1
51416,Universidad De C횄징diz,36.5292509,-6.2061686,2
51417,Valdelagrana,36.5847249,-6.2162993,1
51419,R횄짯o Arillo,36.4574943,-6.2236261,2
51450,Pelagatos,36.4087561,-6.1343224,2
51451,La Hoya,36.4112449,-6.1390947,2
51452,Reyes Cat횄쨀licos,36.4144119,-6.1431897,2
51453,Nuestra Se횄짹ora De Los Remedios,36.4203978,-6.1447469,2
51454,Alameda Solano,36.4253775,-6.1445236,2
51455,Marquesado,36.4286404,-6.1433744,2
51456,Pinar De Los Franceses,36.4405201,-6.1445658,2
51457,Tres Caminos,36.4665227,-6.1757059,2
51458,Venta De Vargas,36.4677391,-6.1910642,2
51459,Plaza De La Iglesia,36.4662187,-6.1955495,2
51460,Plaza Del Rey,36.4639443,-6.1983443,2
51461,Compa횄짹횄짯a De Mar횄짯a,36.4604371,-6.2010115,2
51462,Plaza Del Carmen,36.4581593,-6.2034887,2
51463,Santo Entierro,36.455907,-6.2096161,2
51464,La Ardila,36.4562497,-6.2160272,2
54403,El Chorro-Caminito Del Rey,36.907335,-4.759258,2
54404,Las Mellizas,36.873306,-4.719433,2
54405,횄징lora,36.8198747,-4.6996105,2
54406,Pizarra,36.7641515,-4.7118313,2
54407,Aljaima,36.7330833,-4.6645001,2
54408,C횄징rtama,36.7337392,-4.6083966,2
54410,Campanillas,36.7050436,-4.5454825,2
54412,M횄징laga-Los Prados,36.6986108,-4.47815,2
54500,M횄징laga M.z. Cercan횄짯as,36.7113885,-4.4328909,2
54501,Victoria Kent,36.7012229,-4.4544145,1
54503,Guadalhorce,36.6920757,-4.4836844,1
54505,M횄징laga-Aeropuerto,36.6777169,-4.4901607,1
54508,La Colina,36.6419236,-4.4926383,1
54509,Torremolinos,36.6225596,-4.49957,2
54510,El Pinillo,36.6098688,-4.5153735,1
54511,Benalm횄징dena-Arroyo De La Miel,36.5991116,-4.5363459,1
54512,Torremuelle,36.5822966,-4.5670183,1
54513,Carvajal,36.570259,-4.5940491,1
54514,Torreblanca Del Sol,36.5649071,-4.6067106,1
54515,Los Boliches,36.5546583,-4.6145767,2
54516,Fuengirola,36.5418947,-4.623858,1
54517,M횄징laga-Centro Alameda,36.7159539,-4.4265335,2
54518,Los 횄징lamos,36.6450587,-4.4851186,1
54519,Montemar Alto,36.6136673,-4.5094259,1
54520,Plaza Mayor,36.6562029,-4.4803044,1
60100,Madrid-Villaverde Bajo,40.3526762,-3.6838977,1
60101,San Crist횄쨀bal Industrial,40.3318587,-3.69896,2
60102,Getafe-Industrial,40.3057176,-3.7078359,2
60103,Pinto,40.2428555,-3.7035303,2
60104,Valdemoro,40.1960779,-3.6649372,1
60105,Ciempozuelos,40.1592011,-3.6101851,2
60107,San Crist횄쨀bal De Los 횄징ngeles,40.3424144,-3.6839795,1
60109,El Casar,40.3185223,-3.7098062,1
60200,Aranjuez,40.0350257,-3.6182534,2
60902,Villena,38.631738,-0.867689,1
60904,Sax,38.544251,-0.813729,2
60905,Elda-Petrer,38.484879,-0.80109,2
60907,Novelda-Aspe,38.407086,-0.777744,2
60911,Alicante/Alacant-Terminal,38.3447127,-0.4955241,1
60913,Sant Vicent Centre,38.3946533,-0.5287247,2
60914,Universidad De Alicante,38.384165,-0.528411,2
61200,Murcia Del Carmen,37.9748243,-1.131508,1
62001,Beniel,38.0448608,-0.9994759,2
62002,Orihuela-Miguel Hern횄징ndez,38.0779321,-0.944606,2
62003,Callosa De Segura,38.1227686,-0.8745747,2
62100,San Isidro-Albatera-Catral,38.1670209,-0.8380854,2
62101,Crevillente,38.2245622,-0.7815283,2
62102,Elche/Elx-Carr횄쨘s,38.2689783,-0.7063992,2
62103,Elche/Elx-Parc,38.2717809,-0.6952193,2
62104,Torrellano,38.2896365,-0.5824572,2
62109,Sant Gabriel,38.3290647,-0.5086866,2
64003,Moixent,38.8777975,-0.7536507,2
64004,Vallada,38.9089907,-0.6902385,2
64005,Montesa,38.9429388,-0.6410905,2
64006,L'alc횄쨘dia De Crespins,38.9690579,-0.5866758,2
64007,Lenova-Manuel,39.0500727,-0.4776036,2
64100,X횄혻tiva,38.992148,-0.5245402,1
64102,La Pobla Llarga,39.0833385,-0.4696592,2
64103,Carcaixent,39.1205251,-0.4544102,2
64104,Alzira,39.1531495,-0.4506011,2
64105,Algemes횄짯,39.1931484,-0.4409196,2
64107,Benifai횄쨀,39.2843027,-0.4299537,2
64200,Silla,39.3619548,-0.4149813,2
64201,Catarroja,39.4000447,-0.3992195,2
64202,Massanassa,39.4091934,-0.3953073,2
64203,Alfafar-Benet횄쨘sser,39.4224232,-0.392605,2
64210,Albal,39.3918429,-0.4026343,2
65000,Val횄짢ncia-Estaci횄쨀 Del Nord,39.4669305,-0.3772239,1
65001,Roca-C횄쨘per,39.5262094,-0.3238405,2
65002,Val횄짢ncia-La Font De Sant Llu횄짯s,39.4416052,-0.371422,2
65003,Val횄짢ncia-Cabanyal,39.4702456,-0.3346772,2
65005,Albuixech,39.5435233,-0.3205526,2
65006,Massalfassar,39.5557532,-0.3183058,2
65007,El Puig,39.588302,-0.3116645,2
65008,Pu횄짠ol,39.6205367,-0.3031085,2
65200,Sagunt,39.6758025,-0.271542,1
65201,Les Valls,39.7193457,-0.2397602,2
65202,Almenara,39.7487737,-0.2183811,2
65203,La Llosa,39.7678109,-0.2029444,2
65204,Chilches/Xilxes,39.7826726,-0.1903295,2
65205,Moncofa,39.8208891,-0.1626965,2
65206,Nules La Villavella,39.8532354,-0.1527317,2
65207,Burriana-Alquer횄짯as Ni횄짹o Perdido,39.8965088,-0.1038601,2
65208,Vila-Real,39.9330935,-0.0967681,2
65209,Almassora,39.9549079,-0.0767713,2
65300,Castell횄쨀 De La Plana,39.9884736,-0.0523456,1
65304,Orpesa,40.092258,0.139861,2
65306,Torreblanca,40.212211,0.198779,2
65308,Alcal횄징 De Chivert,40.30469,0.228717,2
65311,Benicarl횄쨀-Pe횄짹횄짯scola,40.427639,0.415217,1
65312,Vinar횄짼s,40.471682,0.455727,1
65314,Ulldecona-Alcanar-La S횄짤nia,40.5959267,0.44927448,2
65318,Benic횄혻ssim,40.0579451,0.0577646,2
65400,Tortosa,40.807333,0.5230136,1
65401,Camp-Red횄쨀,40.7591556,0.55584433,2
65402,L'aldea-Amposta-Tortosa,40.753564,0.61430923,1
65403,Camarles-Deltebre,40.7747633,0.67176095,2
65404,L'ampolla-El Perell횄쨀-Deltebre,40.8119898,0.70826336,2
65405,L'ametlla De Mar,40.8862,0.80045321,2
65411,Salou-Port Aventura,41.0884798,1.14605195,2
65420,L'hospitalet De L'infant,40.99939,0.91253887,2
65422,Cambrils,41.0815642,1.04603752,2
66200,Utiel,39.5707742,-1.2024215,2
66201,San Antonio De Requena,39.5222997,-1.150367,2
66202,Requena,39.4912708,-1.1046578,2
66203,El Rebollar,39.4773604,-1.0116025,2
66204,Siete Aguas,39.4572264,-0.9025067,2
66206,Bu횄짹ol,39.427139,-0.7873638,2
66207,Chiva,39.4711268,-0.7229414,2
66208,Cheste,39.490903,-0.6862639,2
66209,Loriguilla-Reva,39.4857771,-0.5673983,2
66210,Circuit Ricardo Tormo,39.4954379,-0.6247545,2
66211,Aldaia,39.4611179,-0.4632476,2
66212,Val횄짢ncia-Sant Isidre,39.4502194,-0.4039788,2
66214,Xirivella-Alqueries,39.4626294,-0.432216,2
67007,Ara횄짹ales De Muel,41.468946,-1.086394,2
67010,Cari횄짹ena,41.335586,-1.228422,2
67011,Encinacorba,41.28865,-1.278534,2
67013,Villarreal De Huerva,41.196498,-1.287096,2
67014,Villadoz,41.165482,-1.279339,2
67015,Badules,41.13951,-1.251572,2
67016,Villahermosa,41.108492,-1.239803,2
67017,Ferreruela,41.06387,-1.239384,2
67021,Calamocha,40.903864,-1.299841,2
67100,Caminreal-Fuentes Claras,40.85111,-1.33765,2
67101,Torrijo Del Campo,40.826012,-1.340498,2
67105,Santa Eulalia Del Campo,40.572917,-1.312995,2
67107,Cella,40.455266,-1.244329,2
67113,Monreal Del Campo,40.782321,-1.360792,2
67200,Teruel,40.341029,-1.110284,1
67202,Puerto Escand횄쨀n,40.273092,-0.985079,2
67203,Puebla De Valverde,40.213424,-0.944674,2
67205,Sarri횄쨀n,40.146339,-0.823631,2
67206,Mora De Rubielos,40.123142,-0.786145,2
67207,Rubielos De Mora,40.118006,-0.773463,2
67208,Barracas,40.01174,-0.696151,2
67211,Caudiel,39.9473696,-0.5720537,2
67212,J횄짤rica-Viver,39.9149777,-0.5693896,2
67213,Navajas,39.8744166,-0.5059546,2
67214,Segorbe-Arrabal,39.854557,-0.493863,2
67215,Segorbe-Ciudad,39.8471755,-0.4823544,2
67216,Algimia-Ciudad,39.7529934,-0.3657542,2
67217,Soneja,39.8126015,-0.4318206,2
67221,Estivella-Albalat Dels Tarongers,39.706408,-0.348324,2
67223,Gilet,39.6793985,-0.3206548,2
69001,Genov횄짤s,38.98773,-0.47988,2
69002,Benig횄혻nim,38.938499,-0.453424,2
69003,La Pobla Del Duc,38.907606,-0.453386,2
69004,Montaberner,38.884135,-0.491619,2
69005,Bufal횄짯,38.867405,-0.510478,2
69006,Albaida,38.845645,-0.518129,2
69007,Agullent,38.830569,-0.551183,2
69008,Ontinyent,38.809692,-0.602457,2
69009,Agres,38.796829,-0.521744,2
69010,Cocentaina,38.740618,-0.446789,2
69011,Alcoi,38.709349,-0.470247,2
69101,El Roman횄짯,39.3029789,-0.3942354,2
69102,Sollana,39.2793471,-0.3793139,2
69103,Sueca,39.2058471,-0.3082388,2
69104,Cullera,39.1778885,-0.2632437,1
69105,Tavernes De La Valldigna,39.0790438,-0.2262966,2
69107,Xeraco,39.0261489,-0.2150346,2
69110,Gandia,38.970514,-0.1797829,1
69111,Platja I Grau De Gandia,38.9902436,-0.1624339,2
70001,Vallecas,40.3819607,-3.6245835,2
70002,Asamblea De Madrid-Entrev횄짯as,40.3818618,-3.6680454,2
70003,El Pozo,40.3760377,-3.6561407,2
70100,Vic횄징lvaro,40.4012524,-3.595897,2
70101,San Fernando De Henares,40.4427805,-3.5339866,2
70102,Torrej횄쨀n De Ardoz,40.4547895,-3.47973,2
70103,Alcal횄징 De Henares,40.4890814,-3.3662457,2
70104,Meco,40.5346731,-3.2986806,2
70105,Azuqueca,40.561077,-3.265397,2
70107,Alcal횄징 De Henares-Universidad,40.5054303,-3.3353258,2
70108,Coslada,40.423237,-3.5611109,2
70109,Santa Eugenia,40.3869545,-3.6089855,2
70111,La Garena,40.4805448,-3.3930055,2
70112,Soto Del Henares,40.463964,-3.4414076,2
70200,Guadalajara,40.6441928,-3.1822602,2
70202,Yunquera De Henares,40.747013,-3.163226,2
70204,Humanes De Mohernando,40.831273,-3.13886,2
70207,Espinosa De Henares,40.909686,-3.073157,2
70208,Carrascosa De Henares,40.90598,-3.014352,2
70209,Jadraque,40.930229,-2.935935,2
70210,Matillas,40.953808,-2.84326,2
70300,Baides,41.004864,-2.785635,2
70302,Sig횄쩌enza,41.071417,-2.646407,2
70400,Torralba,41.136617,-2.492952,2
70401,Medinaceli,41.165207,-2.421241,2
70403,Arcos De Jal횄쨀n,41.215854,-2.278998,2
70404,Santa Mar횄짯a De Huerta,41.264421,-2.177525,2
70500,Ariza,41.3098,-2.059411,2
70501,Cetina,41.295978,-1.961811,2
70502,Alhama De Arag횄쨀n,41.294398,-1.904454,2
70504,Ateca,41.324659,-1.785268,2
70600,Calatayud,41.346692,-1.63868,1
70602,Embid De Jal횄쨀n,41.421676,-1.592127,2
70603,Paracuellos-Sabi횄짹횄징n,41.42931,-1.567483,2
70604,Sabi횄짹횄징n,41.443981,-1.571474,2
70605,Mor횄짤s,41.478667,-1.566238,2
70606,Purroy,41.477236,-1.540446,2
70607,Morata De Jal횄쨀n,41.475467,-1.479721,2
70700,Ricla-La Almunia,41.501394,-1.40345,2
70701,Calatorao,41.528692,-1.360545,2
70702,Salillas De Jal횄쨀n,41.56794,-1.325848,2
70703,횄짤pila,41.60933,-1.301043,2
70706,Gris횄짤n,41.745261,-1.165924,2
70800,Casetas,41.7226479,-1.0201916,1
70801,Utebo,41.7108644,-0.9985828,1
70806,Zaragoza-Portillo,41.6527361,-0.8958759,1
70807,Zaragoza-Goya,41.6438779,-0.8912574,2
71100,Zaragoza-Miraflores,41.6334311,-0.8681653,1
71103,Fuentes De Ebro,41.515065,-0.618625,2
71105,Quinto,41.419528,-0.490673,2
71108,La Zaida-S횄징stago,41.320542,-0.427115,2
71200,La Puebla De H횄짯jar,41.2244,-0.438595,2
71201,Samper,41.182183,-0.368761,2
71204,Caspe,41.239738,-0.042701,2
71205,Val De Pilas,41.230056,0.070145,2
71206,Fabara,41.234405,0.143284,2
71207,Nonaspe,41.213788,0.242472,2
71208,Fai횄쨀-La Pobla De Massaluca,41.2250555,0.35110259,2
71209,Riba-Roja D'ebre,41.2485594,0.48103178,2
71210,Flix,41.2293651,0.54010012,2
71211,Asc횄쨀,41.1823727,0.56902524,2
71300,M횄쨀ra La Nova,41.1065823,0.65321819,2
71302,Cap횄짠anes,41.1020902,0.78036099,2
71303,Mar횄짠횄혻-Falset,41.1309421,0.81041774,2
71304,Pradell,41.1333595,0.85865032,2
71305,Duesaig횄쩌es-L'argentera,41.1436928,0.92087096,2
71306,Riudecanyes-Botarell,41.1400577,0.97574775,2
71307,Les Borges Del Camp,41.1665064,1.0221323,2
71400,Reus,41.1605229,1.10008978,1
71401,Vila-Seca,41.1128193,1.15037877,2
71500,Tarragona,41.1115636,1.25322776,1
71502,Altafulla-Tamarit,41.1366479,1.37341488,2
71503,Torredembarra,41.1427923,1.40578377,1
71600,Sant Vicen횄짠 De Calders,41.1862102,1.52480358,2
71601,Calafell,41.1896703,1.57500937,2
71602,Segur De Calafell,41.1925787,1.60643599,2
71603,Cunit,41.1950415,1.63194242,2
71604,Cubelles,41.2043246,1.6759772,2
71700,Vilanova I La Geltr횄쨘,41.2203207,1.73077249,2
71701,Sitges,41.2391315,1.80969184,2
71703,Garraf,41.2545875,1.90250383,2
71704,Platja De Castelldefels,41.2669823,1.95713579,2
71705,Castelldefels,41.2790474,1.97915126,2
71706,Gav횄혻,41.3034722,2.01053111,2
71707,El Prat De Llobregat,41.3309401,2.08934473,2
71708,Bellvitge-Gornal,41.3549216,2.1152733,2
71709,Viladecans,41.3095086,2.02741857,2
71801,Barcelona-Sants,41.3798632,2.14101688,1
71802,Barcelona-Passeig De Gr횄혻cia,41.3920862,2.16533862,2
72101,Roda De Mar,41.1864204,1.45520767,2
72201,El Vendrell,41.2210057,1.53790552,2
72202,L'arbo횄짠,41.2734041,1.60051857,2
72203,Els Monjos,41.3147135,1.65988402,2
72204,Vilafranca Del Pened횄짢s,41.3448139,1.70320131,2
72205,La Granada,41.3709497,1.72507893,2
72206,Lavern-Subirats,41.3957338,1.76817358,2
72207,Sant Sadurn횄짯 D'anoia,41.4205181,1.79468769,2
72208,Gelida,41.4485405,1.86552988,2
72209,Martorell-Central,41.4792866,1.92533467,2
72210,Castellbisbal,41.4734152,1.96756971,2
72211,El Papiol,41.4353713,2.00257792,2
72300,Molins De Rei,41.4098958,2.02077275,2
72301,Sant Feliu De Llobregat,41.3830018,2.0479197,2
72302,Sant Joan Desp횄짯,41.3685805,2.06020835,2
72303,Cornell횄혻,41.3575214,2.07054907,2
72305,L'hospitalet De Llobregat,41.3642038,2.10091749,2
72400,El Prat Aeroport,41.3041813,2.07340133,2
72501,Rub횄짯 Can Vallhonrat,41.4751763,2.03707926,2
72502,Sant Cugat Coll Fav횄혻,41.4810907,2.07967922,2
72503,Cerdanyola Universitat,41.4969904,2.1153777,2
72508,Santa Perp횄짢tua De Mogoda-Riera De Caldes,41.5262297,2.18633867,2
73001,Puigverd De Lleida-Artesa,41.5537015,0.73342706,2
73002,Juneda,41.5439328,0.82554185,2
73003,Les Borges Blanques,41.5213973,0.87791022,2
73004,La Floresta,41.5042013,0.924432,2
73005,Vinaixa,41.425141,0.9703737,2
73006,Vimbod횄짯 I Poblet,41.4027277,1.04603327,2
73007,L'espluga De Francol횄짯,41.4006616,1.10336094,2
73008,Montblanc,41.3766254,1.16554869,2
73009,Vilaverd,41.3376633,1.17653235,2
73010,La Riba,41.3184926,1.1813126,2
73100,La Plana-Picamoixons,41.3061987,1.19488293,2
73101,Alcover,41.2616066,1.17416002,2
73102,La Selva Del Camp,41.2111544,1.14396003,2
74200,Huesca,42.133594,-0.409745,1
74204,Ayerbe,42.27561,-0.682569,2
74206,Riglos,42.344756,-0.731599,2
74207,Santa Mar횄짯a Y La Pe횄짹a,42.38039,-0.695647,2
74208,Anz횄징nigo,42.403289,-0.643344,2
74209,Caldearenas-Aquilu횄짤,42.397973,-0.499309,2
74211,Sabi횄짹횄징nigo,42.520446,-0.373085,2
74213,Jaca,42.578303,-0.539231,2
74214,Castiello-Pueblo,42.62811,-0.546291,2
74216,Villan횄쨘a,42.688745,-0.52346,2
74217,Canfranc,42.751471,-0.514641,2
76001,Salom횄쨀,41.2234416,1.37662504,2
76002,Vilabella,41.2395473,1.31749155,2
76003,Nulles-Br횄혻fim,41.2503192,1.29750259,2
76004,Valls,41.2896079,1.25865179,2
77002,Montcada-Ripollet,41.4968022,2.18192841,2
77003,Santa Perp횄짢tua De Mogoda La Florida,41.5262041,2.18623384,2
77004,Mollet-Santa Rosa,41.5366617,2.20616865,2
77005,Parets Del Vall횄짢s,41.556269,2.22600409,2
77006,Granollers-Canovelles,41.6114637,2.27686073,2
77100,Les Franqueses Del Vall횄짢s,41.6297885,2.29516461,2
77102,La Garriga,41.6846272,2.28879559,2
77103,Figar횄쨀,41.7213454,2.27160129,2
77104,Sant Mart횄짯 De Centelles,41.7605736,2.24890462,2
77105,Centelles,41.7993947,2.22263552,2
77106,Baleny횄혻-Els Hostalets,41.8149511,2.23331523,2
77107,Baleny횄혻-Tona-Seva,41.8419076,2.2474424,2
77109,Vic,41.9310958,2.24885665,2
77110,Manlleu,41.9998601,2.26929589,2
77111,Torell횄쨀,42.0520113,2.25997226,2
77112,Borgony횄혻,42.0646586,2.24200567,2
77113,Sant Quirze De Besora-Montesquiu,42.1048488,2.21773349,2
77114,La Farga De Bebi횄짤,42.1300729,2.20393566,2
77200,Ripoll,42.1961284,2.19584128,2
77301,Campdev횄혻nol,42.2217131,2.16575839,2
77303,Ribes De Freser,42.3002126,2.16619947,2
77304,Planoles,42.3144689,2.09973152,2
77305,Toses,42.3209639,2.01525836,2
77306,La Molina,42.3446518,1.95595081,2
77307,Urtx-Alp,42.3768624,1.89685307,2
77309,Puigcerd횄혻,42.4296256,1.92458355,2
77310,La Tour De Carol,42.4590288,1.90438312,2
78005,Villanueva De G횄징llego,41.76551,-0.822204,2
78200,Tardienta,41.975716,-0.538223,2
78400,Lleida-Pirineus,41.62013,0.63365328,1
78402,Bell-Lloc D'urgell,41.631619,0.781547,2
78403,Mollerussa,41.631779,0.896775,2
78404,Golm횄짤s,41.635929,0.930863,2
78405,Castellnou De Seana,41.637464,0.967736,2
78406,Bellpuig,41.632545,1.012993,2
78407,Anglesola,41.646448,1.079192,2
78408,T횄혻rrega,41.650387,1.138963,2
78500,Cervera,41.673611,1.274773,2
78501,Sant Guim De Freixenet,41.655924,1.42053,2
78502,Sant Mart횄짯 Sesgueioles,41.701217,1.486204,2
78503,Calaf,41.730334,1.515097,2
78504,Seguers-Sant Pere Sallavinera,41.747991,1.574167,2
78505,Aguilar De Segarra,41.738917,1.62372,2
78506,Rajadell,41.733159,1.696275,2
78600,Manresa,41.7203921,1.82648564,2
78604,Sant Vicen횄짠 De Castellet,41.6688309,1.86264304,2
78605,Castellbell I El Vilar-Monist Montserrat,41.6286826,1.86882093,2
78606,Vacarisses,41.601928,1.8940879,2
78607,Vacarisses-Torreblanca,41.5869183,1.91647577,2
78609,Viladecavalls,41.5637965,1.95727015,2
78610,Sant Miquel De Gonteres,41.5688661,1.97428484,2
78700,Terrassa Estaci횄쨀 Del Nord,41.5697825,2.01435428,2
78703,Sabadell Sud,41.5287076,2.10539311,2
78704,Sabadell Centre,41.5464197,2.11560767,2
78705,Barber횄혻 Del Vall횄짢s,41.5136598,2.11845269,2
78706,Cerdanyola Del Vall횄짢s,41.4925608,2.14752164,2
78707,Montcada I Reixac-Santa Mar횄짯a,41.4811409,2.16698683,2
78708,Montcada I Reixac-Manresa,41.4839402,2.1854042,2
78709,Sabadell Nord,41.5619773,2.09622844,2
78710,Terrassa Est,41.5675296,2.03963639,2
78800,Montcada-Bifurcaci횄쨀,41.4698402,2.18001578,2
78801,Torre Del Bar횄쨀-Vallbona,41.4609684,2.18102036,2
78802,Fabra I Puig,41.4303481,2.18332907,2
78804,Barcelona-Arc De Triomf,41.3919048,2.18063916,2
78805,Barcelona-Pla횄짠a De Catalunya,41.3879231,2.16970383,1
78806,Barcelona-La Sagrera-Meridiana,41.421848,2.18711031,2
79004,Barcelona-Sant Andreu,41.4361251,2.19319866,2
79005,Montcada I Reixac,41.4842254,2.1880892,2
79006,Mollet-Sant Fost,41.5335634,2.21766516,2
79007,Montmel횄쨀,41.5496523,2.24544407,2
79009,Barcelona-El Clot,41.4092979,2.18719759,2
79011,La Llagosta,41.5104566,2.19973279,2
79100,Granollers-Centre,41.5997447,2.29126962,1
79101,Cardedeu,41.6367012,2.35626265,2
79102,Llinars Del Vall횄짢s,41.6380367,2.40445769,2
79103,Palautordera,41.6719522,2.45421488,2
79104,Sant Celoni,41.6857928,2.49072799,2
79105,Gualba,41.7181901,2.53878373,2
79106,Riells I Viabrea-Breda,41.7263582,2.56889584,2
79107,Hostalric,41.747788,2.63165011,2
79109,Les Franqueses-Granollers Nord,41.6172549,2.2944318,2
79200,Ma횄짠anet-Massanes,41.7724212,2.67385865,2
79202,Sils,41.8075996,2.74500729,2
79203,Caldes De Malavella,41.84111,2.80076692,2
79204,Riudellots,41.896297,2.81157037,2
79205,Fornells De La Selva,41.935043,2.80978324,2
79300,Girona,41.9793629,2.81693689,1
79301,Celr횄혻,42.0271984,2.87490587,2
79302,Bordils-Jui횄혻,42.0370568,2.91529561,2
79303,Fla횄짠횄혻,42.047477,2.95740315,1
79304,Sant Jordi Desvalls,42.0683023,2.96447664,2
79305,Camallera,42.1223297,2.96536522,2
79306,Sant Miquel De Fluvi횄혻,42.1721019,2.98959828,2
79308,Vilamalla,42.216362,2.97776423,2
79309,Figueres,42.2651134,2.96880074,1
79311,Vilaju횄짱ga,42.3256691,3.08754626,2
79312,Llan횄짠횄혻,42.3666194,3.1489746,2
79314,Colera,42.4068837,3.15434316,2
79315,Portbou,42.4245908,3.15801841,1
79316,Cerb횄짢re,42.441664,3.16314935,2
79400,Barcelona Estaci횄쨀 De Fran횄짠a,41.3844866,2.18534785,1
79403,Sant Adri횄혻 De Bes횄짼s,41.4244316,2.23048178,1
79404,Badalona,41.4458838,2.24892096,1
79405,Montgat,41.4630211,2.2721551,2
79406,Montgat-Nord,41.468786,2.28669661,2
79407,El Masnou,41.4770363,2.3103772,2
79408,Ocata,41.4790211,2.31953267,2
79409,Premi횄혻 De Mar,41.4877522,2.35485608,2
79410,Vilassar De Mar,41.5006285,2.38986104,2
79412,Cabrera De Mar-Vilassar De Mar,41.5067718,2.40162431,1
79500,Matar횄쨀,41.5333852,2.44553025,1
79501,Sant Andreu De Llavaneres,41.5555467,2.49826463,2
79502,Caldes D'estrac,41.5686082,2.52598143,2
79600,Arenys De Mar,41.577699,2.54933744,2
79601,Canet De Mar,41.5866691,2.58128887,2
79602,Sant Pol De Mar,41.6017549,2.62459756,2
79603,Calella,41.6146911,2.66599517,1
79604,Pineda De Mar,41.6224449,2.69355042,2
79605,Malgrat De Mar,41.641602,2.74127903,2
79606,Blanes,41.6736157,2.7692697,2
79607,Tordera,41.7071687,2.71957063,2
79608,Santa Susana,41.6300971,2.7159698,2
80003,Etxarri-Aranatz,42.911138,-2.071245,2
80005,Uharte-Arakil,42.920606,-1.974814,2
80100,Pamplona/Iru횄짹a,42.824877,-1.661419,1
80108,Tafalla,42.525756,-1.671467,2
80109,Olite-Erriberri,42.484989,-1.649964,2
80114,Marcilla De Navarra,42.334851,-1.717418,2
80115,Villafranca De Navarra,42.280734,-1.745716,2
81100,Logro횄짹o,42.457459,-2.442193,1
81102,Agoncillo,42.443585,-2.291701,2
81105,Alcanadre,42.407437,-2.122094,2
81106,F횄짤culas-Navarra,42.411148,-2.098196,2
81108,Calahorra,42.310458,-1.957755,2
81109,Rinc횄쨀n De Soto,42.230011,-1.847473,2
81110,Alfaro,42.186525,-1.747985,2
81200,Castej횄쨀n De Ebro,42.172719,-1.692114,2
81202,Tudela De Navarra,42.059434,-1.597931,1
81203,Ribaforada,41.997038,-1.515097,2
81205,Cortes De Navarra,41.915076,-1.420439,2
81206,Gallur,41.867164,-1.321342,2
81207,Luceni,41.826116,-1.243536,2
81208,Pedrola,41.805198,-1.201673,2
81209,Caba횄짹as De Ebro,41.788065,-1.167533,2
81210,Alag횄쨀n,41.771422,-1.112771,2
97100,Pitis,40.4954173,-3.7261603,2
97200,Mirasierra-Paco De Luc횄짯a,40.499759,-3.7092505,2
97201,Madrid-Ram횄쨀n Y Cajal,40.4881473,-3.6948037,2
98003,Fuente De La Mora,40.48472,-3.6630608,2
98304,Valdebebas,40.4821016,-3.6162874,2
98305,Madrid-Aeropuerto T4,40.4924023,-3.5932297,2
